{"NYP":{"name":"New York (Penn Station), New York","city":"New York","state":"NY","station_code":"NYP","latitude":"40.750326999893062","longitude":"-73.994458999966241","timezone":-5},"WAS":{"name":"Washington, District of Columbia","city":"Washington","state":"DC","station_code":"WAS","latitude":"38.896993000169722","longitude":"-77.006422000431741","timezone":-5},"PHL":{"name":"Philadelphia (30th St), Pennsylvania","city":"Philadelphia","state":"PA","station_code":"PHL","latitude":"39.955615000012479","longitude":"-75.181040999746472","timezone":-5},"CHI":{"name":"Chicago (Union Station), Illinois","city":"Chicago","state":"IL","station_code":"CHI","latitude":"41.878684000034553","longitude":"-87.639443000304311","timezone":-6},"BOS":{"name":"Boston (South Station), Massachusetts","city":"Boston","state":"MA","station_code":"BOS","latitude":"42.352311000127628","longitude":"-71.055303999629416","timezone":-5},"LAX":{"name":"Los Angeles, California","city":"Los Angeles","state":"CA","station_code":"LAX","latitude":"34.056176999862451","longitude":"-118.236778000023975","timezone":-8},"SAC":{"name":"Sacramento, California","city":"Sacramento","state":"CA","station_code":"SAC","latitude":"38.584004000067509","longitude":"-121.500703999961758","timezone":-8},"BAL":{"name":"Baltimore (Penn Station), Maryland","city":"Baltimore","state":"MD","station_code":"BAL","latitude":"39.307302000180279","longitude":"-76.615687999673725","timezone":-5},"ALB":{"name":"Albany/Rensselaer, New York","city":"Albany-Rensselaer","state":"NY","station_code":"ALB","latitude":"42.641028999686831","longitude":"-73.741147000431795","timezone":-5},"PVD":{"name":"Providence, Rhode Island","city":"Providence","state":"RI","station_code":"PVD","latitude":"41.829490000162025","longitude":"-71.413477999670803","timezone":-5},"SAN":{"name":"San Diego (Downtown), California","city":"San Diego","state":"CA","station_code":"SAN","latitude":"32.716168999747453","longitude":"-117.16957600014581","timezone":-8},"WIL":{"name":"Wilmington, Delaware","city":"Wilmington","state":"DE","station_code":"WIL","latitude":"39.737262999896686","longitude":"-75.551095000231442","timezone":-5},"BWI":{"name":"BWI Rail Station at Thurgood Marshall Airport, Mar","city":"BWI Marshall Airport","state":"MD","station_code":"BWI","latitude":"39.192361999865589","longitude":"-76.69429999958173","timezone":-5},"NWK":{"name":"Newark (Penn Station), New Jersey","city":"Newark","state":"NJ","station_code":"NWK","latitude":"40.734705999951537","longitude":"-74.164749999906263","timezone":-5},"SEA":{"name":"Seattle (Amtrak), Washington","city":"Seattle","state":"WA","station_code":"SEA","latitude":"47.59844500024569","longitude":"-122.33016100018709","timezone":-8},"NHV":{"name":"New Haven, Connecticut","city":"New Haven","state":"CT","station_code":"NHV","latitude":"41.29771399982176","longitude":"-72.926669999558925","timezone":-5},"BBY":{"name":"Boston (Back Bay), Massachusetts","city":"Boston","state":"MA","station_code":"BBY","latitude":"42.347317000212108","longitude":"-71.075828000266839","timezone":-5},"MKE":{"name":"Milwaukee, Wisconsin","city":"Milwaukee","state":"WI","station_code":"MKE","latitude":"43.034517999847424","longitude":"-87.917104000006503","timezone":-6},"PDX":{"name":"Portland, Oregon","city":"Portland","state":"OR","station_code":"PDX","latitude":"45.528724000303654","longitude":"-122.676806000312524","timezone":-8},"EMY":{"name":"Emeryville, California","city":"Emeryville","state":"CA","station_code":"EMY","latitude":"37.840473999969568","longitude":"-122.29161500011628","timezone":-8},"LNC":{"name":"Lancaster, Pennsylvania","city":"Lancaster","state":"PA","station_code":"LNC","latitude":"40.054180999905739","longitude":"-76.30771400019087","timezone":-5},"HAR":{"name":"Harrisburg, Pennsylvania","city":"Harrisburg","state":"PA","station_code":"HAR","latitude":"40.262050000145599","longitude":"-76.878256000045553","timezone":-5},"BFD":{"name":"Bakersfield, California","city":"Bakersfield","state":"CA","station_code":"BFD","latitude":"35.372139999840869","longitude":"-119.008209999829617","timezone":-8},"RTE":{"name":"Westwood, Route 128 Station, Massachusetts","city":"Route 128","state":"MA","station_code":"RTE","latitude":"42.210241999959671","longitude":"-71.147894000055672","timezone":-5},"TRE":{"name":"Trenton, New Jersey","city":"Trenton","state":"NJ","station_code":"TRE","latitude":"40.219011000023187","longitude":"-74.754439999673721","timezone":-5},"BON":{"name":"Boston (North Station), Massachusetts","city":"Boston","state":"MA","station_code":"BON","latitude":"42.366234999885485","longitude":"-71.061121999652443","timezone":-5},"STM":{"name":"Stamford, Connecticut","city":"Stamford","state":"CT","station_code":"STM","latitude":"41.047130000267344","longitude":"-73.542159999663554","timezone":-5},"SOL":{"name":"Solana Beach, California","city":"Solana Beach","state":"CA","station_code":"SOL","latitude":"32.992937000028498","longitude":"-117.27113499955766","timezone":-8},"DAV":{"name":"Davis, California","city":"Davis","state":"CA","station_code":"DAV","latitude":"38.54356200016062","longitude":"-121.737707000173046","timezone":-8},"MET":{"name":"Metropark (Iselin), New Jersey","city":"Metropark","state":"NJ","station_code":"MET","latitude":"40.568055999726532","longitude":"-74.329582999673335","timezone":-5},"FNO":{"name":"Fresno, California","city":"Fresno","state":"CA","station_code":"FNO","latitude":"36.738456999989566","longitude":"-119.782925999565478","timezone":-8},"MTZ":{"name":"Martinez, California","city":"Martinez","state":"CA","station_code":"MTZ","latitude":"38.018920999930103","longitude":"-122.138784000093167","timezone":-8},"IRV":{"name":"Irvine, California","city":"Irvine","state":"CA","station_code":"IRV","latitude":"33.656771000130938","longitude":"-117.733694999904941","timezone":-8},"RVR":{"name":"Richmond (Staples Mill Rd), Virginia","city":"Richmond","state":"VA","station_code":"RVR","latitude":"37.617692999859578","longitude":"-77.496943000041796","timezone":-5},"OKJ":{"name":"Oakland, California","city":"Oakland - Jack London Square","state":"CA","station_code":"OKJ","latitude":"37.793865999927526","longitude":"-122.271667000137356","timezone":-8},"SBA":{"name":"Santa Barbara, California","city":"Santa Barbara","state":"CA","station_code":"SBA","latitude":"34.413718000271956","longitude":"-119.692784999741519","timezone":-8},"STL":{"name":"St. Louis, Missouri","city":"St. Louis","state":"MO","station_code":"STL","latitude":"38.624460999736243","longitude":"-90.203838000368833","timezone":-6},"OSD":{"name":"Oceanside, California","city":"Oceanside","state":"CA","station_code":"OSD","latitude":"33.19251500027972","longitude":"-117.379429999957779","timezone":-8},"FUL":{"name":"Fullerton, California","city":"Fullerton","state":"CA","station_code":"FUL","latitude":"33.868969000262453","longitude":"-117.922849000250736","timezone":-8},"SKN":{"name":"Stockton (711-718), California","city":"Stockton","state":"CA","station_code":"SKN","latitude":"37.945468000125835","longitude":"-121.285632000176378","timezone":-8},"RIC":{"name":"Richmond, California","city":"Richmond","state":"CA","station_code":"RIC","latitude":"37.936751999965026","longitude":"-122.354130000413264","timezone":-8},"OLT":{"name":"San Diego (Old Town), California","city":"San Diego - Old Town","state":"CA","station_code":"OLT","latitude":"32.755266000256398","longitude":"-117.200073000049485","timezone":-8},"ANA":{"name":"Anaheim, California","city":"Anaheim","state":"CA","station_code":"ANA","latitude":"33.803803000231596","longitude":"-117.877307999623838","timezone":-8},"LOR":{"name":"Lorton (Auto Train), Virginia","city":"Lorton","state":"VA","station_code":"LOR","latitude":"38.708143000170466","longitude":"-77.22094199984808","timezone":-5},"SFA":{"name":"Sanford (Auto Train), Florida","city":"Sanford","state":"FL","station_code":"SFA","latitude":"28.808544000208514","longitude":"-81.291273999851967","timezone":-5},"BNL":{"name":"Bloomington-Normal, Illinois","city":"Bloomington-Normal","state":"IL","station_code":"BNL","latitude":"40.509010000262776","longitude":"-88.984305999884668","timezone":-6},"SJC":{"name":"San Jose, California","city":"San Jose","state":"CA","station_code":"SJC","latitude":"37.32993300018363","longitude":"-121.902387999604187","timezone":-8},"SNC":{"name":"San Juan Capistrano, California","city":"San Juan Capistrano","state":"CA","station_code":"SNC","latitude":"33.501317999686329","longitude":"-117.663813000404559","timezone":-8},"HUD":{"name":"Hudson, New York","city":"Hudson","state":"NY","station_code":"HUD","latitude":"42.253891000079776","longitude":"-73.797729000179686","timezone":-5},"RHI":{"name":"Rhinecliff, New York","city":"Rhinecliff","state":"NY","station_code":"RHI","latitude":"41.921346000213333","longitude":"-73.951278000253211","timezone":-5},"PAO":{"name":"Paoli, Pennsylvania","city":"Paoli","state":"PA","station_code":"PAO","latitude":"40.042753999930625","longitude":"-75.48376000034429","timezone":-5},"HNF":{"name":"Hanford, California","city":"Hanford","state":"CA","station_code":"HNF","latitude":"36.326077999666261","longitude":"-119.65181599990602","timezone":-8},"ALX":{"name":"Alexandria, Virginia","city":"Alexandria","state":"VA","station_code":"ALX","latitude":"38.806503000307075","longitude":"-77.062329999611833","timezone":-5},"NOL":{"name":"Union Passenger Terminal","city":"New Orleans","state":"LA","station_code":"NOL","latitude":"29.946084999945928","longitude":"-90.078290999565965","timezone":-6},"CLT":{"name":"Charlotte, North Carolina","city":"Charlotte","state":"NC","station_code":"CLT","latitude":"35.241403000123945","longitude":"-80.822811999816025","timezone":-5},"NCR":{"name":"New Carrollton, Maryland","city":"New Carrollton","state":"MD","station_code":"NCR","latitude":"38.948098000212937","longitude":"-76.871494000016312","timezone":-5},"SUI":{"name":"Suisun, California","city":"Suisun-Fairfield","state":"CA","station_code":"SUI","latitude":"38.243400999963157","longitude":"-122.04109899971715","timezone":-8},"POR":{"name":"Portland, Maine","city":"Portland","state":"ME","station_code":"POR","latitude":"43.654097000153641","longitude":"-70.291258000192101","timezone":-5},"SPI":{"name":"Springfield, Illinois","city":"Springfield","state":"IL","station_code":"SPI","latitude":"39.802323000024039","longitude":"-89.651384000069768","timezone":-6},"KIN":{"name":"West Kingston, Rhode Island","city":"Kingston","state":"RI","station_code":"KIN","latitude":"41.483959000033835","longitude":"-71.560596999976099","timezone":-5},"CHM":{"name":"Champaign-Urbana, Illlinois","city":"Champaign-Urbana","state":"IL","station_code":"CHM","latitude":"40.115843000139506","longitude":"-88.241365999794439","timezone":-6},"MKA":{"name":"Milwaukee (General Mitchell Intl Airport), Wiscons","city":"Milwaukee Mitchell Airport","state":"WI","station_code":"MKA","latitude":"42.94058299973895","longitude":"-87.92435899995526","timezone":-6},"NLC":{"name":"New London, Connecticut","city":"New London","state":"CT","station_code":"NLC","latitude":"41.354267000114653","longitude":"-72.093224999596657","timezone":-5},"RGH":{"name":"Raleigh, North Carolina","city":"Raleigh","state":"NC","station_code":"RGH","latitude":"35.774923000069187","longitude":"-78.645894000343432","timezone":-5},"GAC":{"name":"Santa Clara (Great America), California","city":"Santa Clara- Great American","state":"CA","station_code":"GAC","latitude":"37.406777999930576","longitude":"-121.967002999625691","timezone":-8},"KCY":{"name":"Kansas City, Missouri","city":"Kansas City","state":"MO","station_code":"KCY","latitude":"39.084576000335666","longitude":"-94.585129000035096","timezone":-6},"BKY":{"name":"Berkeley, California","city":"Berkeley","state":"CA","station_code":"BKY","latitude":"37.867253999871707","longitude":"-122.300707000023806","timezone":-8},"SNA":{"name":"Santa Ana, California","city":"Santa Ana","state":"CA","station_code":"SNA","latitude":"33.751629000010304","longitude":"-117.85660700033273","timezone":-8},"PGH":{"name":"Pittsburgh, Pennsylvania","city":"Pittsburgh","state":"PA","station_code":"PGH","latitude":"40.444738000116701","longitude":"-79.992306999827406","timezone":-5},"EWR":{"name":"Newark Liberty International Airport, New Jersey","city":"Newark Liberty Airport","state":"NJ","station_code":"EWR","latitude":"40.696617999874881","longitude":"-74.182290000189099","timezone":-5},"HFD":{"name":"Hartford, Connecticut","city":"Hartford","state":"CT","station_code":"HFD","latitude":"41.768760999706053","longitude":"-72.681314000305207","timezone":-5},"DEN":{"name":"Denver, Colorado","city":"Denver","state":"CO","station_code":"DEN","latitude":"39.752959000102244","longitude":"-104.999928999911262","timezone":-7},"CVS":{"name":"Charlottesville, Virginia","city":"Charlottesville","state":"VA","station_code":"CVS","latitude":"38.031484000271178","longitude":"-78.491684000120912","timezone":-5},"ORL":{"name":"Orlando, Florida","city":"Orlando","state":"FL","station_code":"ORL","latitude":"28.525926000118563","longitude":"-81.381515999958268","timezone":-5},"EXT":{"name":"Exton, Pennsylvania","city":"Exton","state":"PA","station_code":"EXT","latitude":"40.019291000202166","longitude":"-75.621713000223892","timezone":-5},"ARB":{"name":"Ann Arbor, Michigan","city":"Ann Arbor","state":"MI","station_code":"ARB","latitude":"42.28769199991504","longitude":"-83.743153999975831","timezone":-5},"SYR":{"name":"Syracuse, New York","city":"Syracuse","state":"NY","station_code":"SYR","latitude":"43.076548000320948","longitude":"-76.169244000102324","timezone":-5},"ROC":{"name":"Rochester, New York","city":"Rochester","state":"NY","station_code":"ROC","latitude":"43.163410999765148","longitude":"-77.608057000041768","timezone":-5},"MCD":{"name":"Merced, California","city":"Merced","state":"CA","station_code":"MCD","latitude":"37.307183000239213","longitude":"-120.476804999995366","timezone":-8},"TAC":{"name":"Tacoma, Washington","city":"Tacoma","state":"WA","station_code":"TAC","latitude":"47.2418939998933","longitude":"-122.420508999700289","timezone":-8},"MOD":{"name":"Modesto, California","city":"Modesto","state":"CA","station_code":"MOD","latitude":"37.668950999970107","longitude":"-120.912913000077353","timezone":-8},"GRO":{"name":"Greensboro, North Carolina","city":"Greensboro","state":"NC","station_code":"GRO","latitude":"36.069797000306473","longitude":"-79.78708000016006","timezone":-5},"KAL":{"name":"Kalamazoo, Michigan","city":"Kalamazoo","state":"MI","station_code":"KAL","latitude":"42.295255000325788","longitude":"-85.584017999978812","timezone":-5},"SLO":{"name":"San Luis Obispo, California","city":"San Luis Obispo","state":"CA","station_code":"SLO","latitude":"35.276433999961164","longitude":"-120.654700999688501","timezone":-8},"BUF":{"name":"Buffalo (Depew), New York","city":"Buffalo-Depew","state":"NY","station_code":"BUF","latitude":"42.907017000270038","longitude":"-78.726584000234652","timezone":-5},"NPN":{"name":"Newport News, Virginia","city":"Newport News","state":"VA","station_code":"NPN","latitude":"37.022731000022461","longitude":"-76.451969999617077","timezone":-5},"TPA":{"name":"Tampa, Florida","city":"Tampa","state":"FL","station_code":"TPA","latitude":"27.952492000362376","longitude":"-82.450776999553071","timezone":-5},"ELT":{"name":"Elizabethtown, Pennsylvania","city":"Elizabethtown","state":"PA","station_code":"ELT","latitude":"40.1470279998141","longitude":"-76.612233999864173","timezone":-5},"FTW":{"name":"Fort Worth, Texas","city":"Fort Worth","state":"TX","station_code":"FTW","latitude":"32.75256300034988","longitude":"-97.326673000328341","timezone":-6},"POU":{"name":"Poughkeepsie, New York","city":"Poughkeepsie","state":"NY","station_code":"POU","latitude":"41.707056000001408","longitude":"-73.937489999705733","timezone":-5},"CDL":{"name":"Carbondale, Illinois","city":"Carbondale","state":"IL","station_code":"CDL","latitude":"37.724234999753143","longitude":"-89.216628000423","timezone":-6},"GBB":{"name":"Galesburg, Illinois","city":"Galesburg","state":"IL","station_code":"GBB","latitude":"40.944678000014193","longitude":"-90.364105999915594","timezone":-6},"VAN":{"name":"Vancouver, Washington, United States","city":"Vancouver","state":"WA","station_code":"VAN","latitude":"45.628900999843708","longitude":"-122.686544000300472","timezone":-8},"MSP":{"name":"St. Paul/Minneapolis, Minnesota","city":"St. Paul-Minneapolis","state":"MN","station_code":"MSP","latitude":"44.947660999802125","longitude":"-93.085354999900275","timezone":-6},"SPG":{"name":"Springfield, Massachusetts","city":"Springfield","state":"MA","station_code":"SPG","latitude":"42.105986999821376","longitude":"-72.592904999959714","timezone":-5},"EUG":{"name":"Eugene, Oregon","city":"Eugene","state":"OR","station_code":"EUG","latitude":"44.055043000198395","longitude":"-123.092361000343089","timezone":-8},"NRO":{"name":"New Rochelle, New York","city":"New Rochelle","state":"NY","station_code":"NRO","latitude":"40.911450999694146","longitude":"-73.784328999969759","timezone":-5},"CYN":{"name":"Cary, North Carolina","city":"Cary","state":"NC","station_code":"CYN","latitude":"35.788294000242892","longitude":"-78.782246000265786","timezone":-5},"OXN":{"name":"Oxnard, California","city":"Oxnard","state":"CA","station_code":"OXN","latitude":"34.199241000272217","longitude":"-119.175978000445795","timezone":-8},"BRP":{"name":"Bridgeport, Connecticut","city":"Bridgeport","state":"CT","station_code":"BRP","latitude":"41.178005999792305","longitude":"-73.18753900006422","timezone":-5},"LYH":{"name":"Lynchburg, Virginia","city":"Lynchburg","state":"VA","station_code":"LYH","latitude":"37.406438999779411","longitude":"-79.156933999669747","timezone":-5},"EXR":{"name":"Exeter, New Hampshire","city":"Exeter","state":"NH","station_code":"EXR","latitude":"42.981020000149869","longitude":"-70.958700000425239","timezone":-5},"ATL":{"name":"Atlanta, Georgia","city":"Atlanta","state":"GA","station_code":"ATL","latitude":"33.799445000328042","longitude":"-84.392476999792933","timezone":-5},"DOW":{"name":"Downingtown, Pennsylvania","city":"Downingtown","state":"PA","station_code":"DOW","latitude":"40.002192999970362","longitude":"-75.710775000322442","timezone":-5},"SVT":{"name":"Sturtevant, Wisconsin","city":"Sturtevant","state":"WI","station_code":"SVT","latitude":"42.718292000052458","longitude":"-87.906299999813641","timezone":-6},"GTA":{"name":"Goleta, California","city":"Goleta","state":"CA","station_code":"GTA","latitude":"34.437729000311862","longitude":"-119.843091999717601","timezone":-8},"ABQ":{"name":"Albuquerque, New Mexico","city":"Albuquerque","state":"NM","station_code":"ABQ","latitude":"35.082061000187416","longitude":"-106.647974999696643","timezone":-7},"VNC":{"name":"Van Nuys (Amtrak), California","city":"Van Nuys","state":"CA","station_code":"VNC","latitude":"34.211294000046571","longitude":"-118.448206000028989","timezone":-8},"DNC":{"name":"Durham, North Carolina","city":"Durham","state":"NC","station_code":"DNC","latitude":"35.997347000176241","longitude":"-78.906299000343225","timezone":-5},"MEM":{"name":"Memphis, Tennessee","city":"Memphis","state":"TN","station_code":"MEM","latitude":"35.132457999757442","longitude":"-90.05910900021631","timezone":-6},"OAC":{"name":"Coliseum/Oakland Airport, Oakland, California","city":"Oakland - Coliseum Airport","state":"CA","station_code":"OAC","latitude":"37.75249899970445","longitude":"-122.198146999806042","timezone":-8},"JAX":{"name":"Jacksonville, Florida","city":"Jacksonville","state":"FL","station_code":"JAX","latitude":"30.365600999981023","longitude":"-81.723892999964306","timezone":-5},"RNO":{"name":"Reno, Nevada","city":"Reno","state":"NV","station_code":"RNO","latitude":"39.528520999773363","longitude":"-119.812122999810825","timezone":-8},"ARD":{"name":"Ardmore, Pennsylvania","city":"Ardmore","state":"PA","station_code":"ARD","latitude":"40.00827799979033","longitude":"-75.290398999978493","timezone":-5},"MID":{"name":"Middletown, Pennsylvania","city":"Middletown","state":"PA","station_code":"MID","latitude":"40.192568999763289","longitude":"-76.730942999571511","timezone":-5},"MAC":{"name":"Macomb, Illinois","city":"Macomb","state":"IL","station_code":"MAC","latitude":"40.461211999815241","longitude":"-90.670939999573662","timezone":-6},"DER":{"name":"Dearborn, Michigan","city":"Dearborn","state":"MI","station_code":"DER","latitude":"42.307166999703583","longitude":"-83.235310999642806","timezone":-5},"LNS":{"name":"East Lansing, Michigan","city":"East Lansing","state":"MI","station_code":"LNS","latitude":"42.718730999753021","longitude":"-84.495961999750321","timezone":-5},"VEC":{"name":"Ventura, California","city":"Ventura","state":"CA","station_code":"VEC","latitude":"34.276929000064264","longitude":"-119.299917999647022","timezone":-8},"MIA":{"name":"Miami, Florida","city":"Miami","state":"FL","station_code":"MIA","latitude":"25.849554000308068","longitude":"-80.257759000096399","timezone":-5},"DHM":{"name":"Durham, New Hampshire","city":"Durham","state":"NH","station_code":"DHM","latitude":"43.139328000321179","longitude":"-70.936013000314105","timezone":-5},"OLW":{"name":"Olympia/Lacey, Washington","city":"Olympia-Lacey","state":"WA","station_code":"OLW","latitude":"46.991272999844512","longitude":"-122.79405899982757","timezone":-8},"OSB":{"name":"Old Saybrook, Connecticut","city":"Old Saybrook","state":"CT","station_code":"OSB","latitude":"41.300390000217412","longitude":"-72.376818000023022","timezone":-5},"CHS":{"name":"Charleston, South Carolina","city":"Charleston","state":"SC","station_code":"CHS","latitude":"32.87486599965689","longitude":"-79.998001999826812","timezone":-5},"CWT":{"name":"Chatsworth, California","city":"Chatsworth","state":"CA","station_code":"CWT","latitude":"34.253205000312867","longitude":"-118.599416999828279","timezone":-8},"SLM":{"name":"Salem, Oregon","city":"Salem","state":"OR","station_code":"SLM","latitude":"44.932331000234043","longitude":"-123.0283310003026","timezone":-8},"BUR":{"name":"Burbank (Airport), California","city":"Burbank Bob Hope Airport","state":"CA","station_code":"BUR","latitude":"34.19307199969311","longitude":"-118.353766999948377","timezone":-8},"ALN":{"name":"Alton, Illinois","city":"Alton","state":"IL","station_code":"ALN","latitude":"38.90472300018056","longitude":"-90.136275999802692","timezone":-6},"WBG":{"name":"Williamsburg, Virginia","city":"Williamsburg","state":"VA","station_code":"WBG","latitude":"37.276414000076059","longitude":"-76.708564000330256","timezone":-5},"UCA":{"name":"Utica, New York","city":"Utica","state":"NY","station_code":"UCA","latitude":"43.103892000298586","longitude":"-75.223433999987222","timezone":-5},"JOL":{"name":"Joliet, Illinois","city":"Joliet","state":"IL","station_code":"JOL","latitude":"41.525240000260084","longitude":"-88.078765999821243","timezone":-6},"WLN":{"name":"Wilson, North Carolina","city":"Wilson","state":"NC","station_code":"WLN","latitude":"35.723134999896388","longitude":"-77.908029000111483","timezone":-5},"FBG":{"name":"Fredericksburg, Virginia","city":"Fredericksburg","state":"VA","station_code":"FBG","latitude":"38.298413000182137","longitude":"-77.457202999719527","timezone":-5},"WPB":{"name":"West Palm Beach, Florida","city":"West Palm Beach","state":"FL","station_code":"WPB","latitude":"26.712553999627914","longitude":"-80.06218400020326","timezone":-5},"SAV":{"name":"Savannah, Georgia","city":"Savannah","state":"GA","station_code":"SAV","latitude":"32.083412000111124","longitude":"-81.148263999657445","timezone":-5},"GLN":{"name":"Glenview, Illinois","city":"Glenview","state":"IL","station_code":"GLN","latitude":"42.075038000026602","longitude":"-87.805562000384384","timezone":-6},"TOL":{"name":"Toledo, Ohio","city":"Toledo","state":"OH","station_code":"TOL","latitude":"41.638345000260728","longitude":"-83.541720999876674","timezone":-5},"KWD":{"name":"Kirkwood, Missouri","city":"Kirkwood","state":"MO","station_code":"KWD","latitude":"38.581066999762655","longitude":"-90.406761000097163","timezone":-6},"SDY":{"name":"Schenectady, New York","city":"Schenectady","state":"NY","station_code":"SDY","latitude":"42.814605999789826","longitude":"-73.942886999779304","timezone":-5},"WFH":{"name":"Whitefish, Montana","city":"Whitefish","state":"MT","station_code":"WFH","latitude":"48.41347400019157","longitude":"-114.335575000394016","timezone":-7},"RMT":{"name":"Rocky Mount, North Carolina","city":"Rocky Mount","state":"NC","station_code":"RMT","latitude":"35.938001000123357","longitude":"-77.797854999919764","timezone":-5},"FAY":{"name":"Fayetteville, North Carolina","city":"Fayetteville","state":"NC","station_code":"FAY","latitude":"35.054993000315022","longitude":"-78.884788000041894","timezone":-5},"DOV":{"name":"Dover, New Hampshire","city":"Dover","state":"NH","station_code":"DOV","latitude":"43.197968000312748","longitude":"-70.878361000163309","timezone":-5},"SAS":{"name":"San Antonio, Texas","city":"San Antonio","state":"TX","station_code":"SAS","latitude":"29.419350000075557","longitude":"-98.478142999755846","timezone":-6},"MJY":{"name":"Mount Joy, Pennsylvania","city":"Mount Joy","state":"PA","station_code":"MJY","latitude":"40.108959999686725","longitude":"-76.502641000353819","timezone":-5},"BEL":{"name":"Bellingham, Washington","city":"Bellingham","state":"WA","station_code":"BEL","latitude":"48.720262999896789","longitude":"-122.511254999596744","timezone":-8},"DET":{"name":"Detroit, Michigan","city":"Detroit","state":"MI","station_code":"DET","latitude":"42.368097000164838","longitude":"-83.072396999850284","timezone":-5},"SPK":{"name":"Spokane, Washington","city":"Spokane","state":"WA","station_code":"SPK","latitude":"47.65672000011692","longitude":"-117.415455000354584","timezone":-8},"WEM":{"name":"Wells, Maine","city":"Wells","state":"ME","station_code":"WEM","latitude":"43.320836000124416","longitude":"-70.612191999668838","timezone":-5},"HAY":{"name":"Hayward, California","city":"Hayward","state":"CA","station_code":"HAY","latitude":"37.665996999714075","longitude":"-122.099277000297704","timezone":-8},"CLE":{"name":"Cleveland, Ohio","city":"Cleveland","state":"OH","station_code":"CLE","latitude":"41.505786999689256","longitude":"-81.696172000002747","timezone":-5},"PAR":{"name":"Parkesburg, Pennsylvania","city":"Parkesburg","state":"PA","station_code":"PAR","latitude":"39.95917999997237","longitude":"-75.922122999961516","timezone":-5},"JAN":{"name":"Jackson, Mississippi","city":"Jackson","state":"MS","station_code":"JAN","latitude":"32.300807999949747","longitude":"-90.190936000101274","timezone":-6},"NPV":{"name":"Naperville, Illinois","city":"Naperville","state":"IL","station_code":"NPV","latitude":"41.779513999834464","longitude":"-88.145497000359128","timezone":-6},"CML":{"name":"Camarillo, California (Trains)","city":"Camarillo","state":"CA","station_code":"CML","latitude":"34.215933000047052","longitude":"-119.034113999923846","timezone":-8},"GSC":{"name":"Glenwood Springs, Colorado","city":"Glenwood Springs","state":"CO","station_code":"GSC","latitude":"39.547903000008404","longitude":"-107.32321800039982","timezone":-7},"FLO":{"name":"Florence, South Carolina","city":"Florence","state":"SC","station_code":"FLO","latitude":"34.199156999740701","longitude":"-79.757056000084404","timezone":-5},"GDL":{"name":"Glendale, California","city":"Glendale","state":"CA","station_code":"GDL","latitude":"34.123705999859148","longitude":"-118.258867999560238","timezone":-8},"CRT":{"name":"Croton Harmon, New York","city":"Croton-Harmon","state":"NY","station_code":"CRT","latitude":"41.1899030001684","longitude":"-73.882394000287377","timezone":-5},"HHL":{"name":"Haverhill, Massachusetts","city":"Haverhill","state":"MA","station_code":"HHL","latitude":"42.773297000070507","longitude":"-71.086374999643425","timezone":-5},"OKC":{"name":"Oklahoma City, Oklahoma","city":"Oklahoma City","state":"OK","station_code":"OKC","latitude":"35.465490000327165","longitude":"-97.512748999709871","timezone":-6},"NFK":{"name":"Norfolk, Virginia","city":"Norfolk","state":"VA","station_code":"NFK","latitude":"36.843508999830838","longitude":"-76.276194999564865","timezone":-5},"SAO":{"name":"Saco, Maine","city":"Saco","state":"ME","station_code":"SAO","latitude":"43.496190999811908","longitude":"-70.449138999959132","timezone":-5},"SIM":{"name":"Simi Valley, California","city":"Simi Valley","state":"CA","station_code":"SIM","latitude":"34.270203999993754","longitude":"-118.695163000138294","timezone":-8},"SCC":{"name":"University Station","city":"Santa Clara University","state":"CA","station_code":"SCC","latitude":"37.353219000349618","longitude":"-121.93657600004218","timezone":-8},"WLY":{"name":"Westerly, Rhode Island","city":"Westerly","state":"RI","station_code":"WLY","latitude":"41.381081000035472","longitude":"-71.829780000064076","timezone":-5},"RVM":{"name":"Richmond (Main St), Virginia","city":"Richmond","state":"VA","station_code":"RVM","latitude":"37.534208999879915","longitude":"-77.429511999895212","timezone":-5},"PJC":{"name":"Princeton Junction, New Jersey","city":"Princeton Junction","state":"NJ","station_code":"PJC","latitude":"40.315849999937406","longitude":"-74.623976000094601","timezone":-5},"BHM":{"name":"Birmingham, Alabama","city":"Birmingham","state":"AL","station_code":"BHM","latitude":"33.512800999773958","longitude":"-86.806614000285194","timezone":-6},"FTL":{"name":"Fort Lauderdale, Florida","city":"Fort Lauderdale","state":"FL","station_code":"FTL","latitude":"26.119255999640345","longitude":"-80.170000000029262","timezone":-5},"DAL":{"name":"Dallas, Texas","city":"Dallas","state":"TX","station_code":"DAL","latitude":"32.776093999894272","longitude":"-96.807234999957146","timezone":-6},"EVR":{"name":"Everett, Washington","city":"Everett","state":"WA","station_code":"EVR","latitude":"47.975400999862991","longitude":"-122.19785800010105","timezone":-8},"QCY":{"name":"Quincy, Illinois","city":"Quincy","state":"IL","station_code":"QCY","latitude":"39.957062999909517","longitude":"-91.368524999708171","timezone":-6},"SLC":{"name":"Salt Lake City, Utah","city":"Salt Lake City","state":"UT","station_code":"SLC","latitude":"40.761660999996238","longitude":"-111.908349000036409","timezone":-7},"FMT":{"name":"Fremont (Trains, Capitol Buses), California","city":"Fremont","state":"CA","station_code":"FMT","latitude":"37.559093000245333","longitude":"-122.007496000158454","timezone":-8},"WAC":{"name":"Wasco, California","city":"Wasco","state":"CA","station_code":"WAC","latitude":"35.594091999833033","longitude":"-119.332309000309252","timezone":-8},"FLG":{"name":"Flagstaff, Arizona","city":"Flagstaff","state":"AZ","station_code":"FLG","latitude":"35.19737400010127","longitude":"-111.648871000324391","timezone":-7},"JEF":{"name":"Jefferson City, Missouri","city":"Jefferson City","state":"MO","station_code":"JEF","latitude":"38.578870000336451","longitude":"-92.169906000144721","timezone":-6},"ACA":{"name":"Antioch-Pittsburg, California","city":"Antioch-Pittsburg","state":"CA","station_code":"ACA","latitude":"38.017700000183638","longitude":"-121.816023999629962","timezone":-8},"RSV":{"name":"Roseville, California","city":"Roseville","state":"CA","station_code":"RSV","latitude":"38.750016000216185","longitude":"-121.286285999754341","timezone":-8},"BTL":{"name":"Battle Creek, Michigan","city":"Battle Creek","state":"MI","station_code":"BTL","latitude":"42.318453000046624","longitude":"-85.187825000121265","timezone":-5},"GRR":{"name":"Grand Rapids, Michigan","city":"Grand Rapids","state":"MI","station_code":"GRR","latitude":"42.955788000122155","longitude":"-85.672447000415772","timezone":-5},"SKT":{"name":"Stockton (ACE, 701-704), California","city":"Stockton  - ACE Station","state":"CA","station_code":"SKT","latitude":"37.957037999885209","longitude":"-121.278999999843464","timezone":-8},"BFX":{"name":"Buffalo (Exchange St), New York","city":"Buffalo- Exchange St.","state":"NY","station_code":"BFX","latitude":"42.878448999822837","longitude":"-78.873747999847467","timezone":-5},"KIS":{"name":"Kissimmee, Florida","city":"Kissimmee","state":"FL","station_code":"KIS","latitude":"28.293834999871702","longitude":"-81.404234000031551","timezone":-5},"ABE":{"name":"Aberdeen, Maryland","city":"Aberdeen","state":"MD","station_code":"ABE","latitude":"39.508446999750547","longitude":"-76.163260000397941","timezone":-5},"MAT":{"name":"Mattoon, Illinois","city":"Mattoon","state":"IL","station_code":"MAT","latitude":"39.482729999716035","longitude":"-88.376044999789514","timezone":-6},"HMW":{"name":"Homewood, Illinois","city":"Homewood","state":"IL","station_code":"HMW","latitude":"41.562446000330851","longitude":"-87.668684999857163","timezone":-6},"SAR":{"name":"Saratoga Springs, New York","city":"Saratoga Springs","state":"NY","station_code":"SAR","latitude":"43.082810000151838","longitude":"-73.810027000199653","timezone":-5},"PCT":{"name":"Princeton, Illinois","city":"Princeton","state":"IL","station_code":"PCT","latitude":"41.385191000192016","longitude":"-89.466815000035851","timezone":-6},"HOM":{"name":"Holland, Michigan","city":"Holland","state":"MI","station_code":"HOM","latitude":"42.791095999878003","longitude":"-86.096552999855462","timezone":-5},"ALY":{"name":"Albany, Oregon","city":"Albany","state":"OR","station_code":"ALY","latitude":"44.630463999838646","longitude":"-123.102773999825402","timezone":-8},"KFS":{"name":"Klamath Falls, Oregon","city":"Klamath Falls","state":"OR","station_code":"KFS","latitude":"42.225508999686269","longitude":"-121.771951999614174","timezone":-8},"HPT":{"name":"High Point, North Carolina","city":"High Point","state":"NC","station_code":"HPT","latitude":"35.957127999777867","longitude":"-80.006097000024681","timezone":-5},"CLB":{"name":"Columbia, South Carolina","city":"Columbia","state":"SC","station_code":"CLB","latitude":"33.994297000186258","longitude":"-81.040489999664203","timezone":-5},"GJT":{"name":"Grand Junction, Colorado","city":"Grand Junction","state":"CO","station_code":"GJT","latitude":"39.06437499972219","longitude":"-108.569928999623912","timezone":-7},"KEL":{"name":"Kelso-Longview, Washington","city":"Kelso-Longview","state":"WA","station_code":"KEL","latitude":"46.142264000260347","longitude":"-122.913016000130384","timezone":-8},"CPN":{"name":"Carpinteria, California","city":"Carpinteria","state":"CA","station_code":"CPN","latitude":"34.396779999866794","longitude":"-119.52297500002544","timezone":-8},"AUS":{"name":"Austin, Texas","city":"Austin","state":"TX","station_code":"AUS","latitude":"30.269449000379616","longitude":"-97.756939999922764","timezone":-6},"IND":{"name":"Indianapolis, Indiana","city":"Indianapolis","state":"IN","station_code":"IND","latitude":"39.761984000278382","longitude":"-86.160423000062366","timezone":-5},"EDM":{"name":"Edmonds, Washington","city":"Edmonds","state":"WA","station_code":"EDM","latitude":"47.811081000019996","longitude":"-122.38414100007013","timezone":-8},"COC":{"name":"Corcoran, California","city":"Corcoran","state":"CA","station_code":"COC","latitude":"36.09851600013625","longitude":"-119.55704999958725","timezone":-8},"PTB":{"name":"Petersburg, Virginia","city":"Petersburg","state":"VA","station_code":"PTB","latitude":"37.241626999681131","longitude":"-77.428793999844814","timezone":-5},"TUK":{"name":"Tukwila, Washington","city":"Tukwila","state":"WA","station_code":"TUK","latitude":"47.461081000140574","longitude":"-122.240253999816531","timezone":-8},"OMA":{"name":"Omaha, Nebraska","city":"Omaha","state":"NE","station_code":"OMA","latitude":"41.249828000279265","longitude":"-95.928650000124293","timezone":-6},"MOT":{"name":"Minot, North Dakota","city":"Minot","state":"ND","station_code":"MOT","latitude":"48.236083000170446","longitude":"-101.298556999699969","timezone":-6},"FLN":{"name":"Flint, Michigan","city":"Flint","state":"MI","station_code":"FLN","latitude":"43.015424999873829","longitude":"-83.651727999663819","timezone":-5},"TRK":{"name":"Turlock-Denair, California","city":"Turlock-Denair","state":"CA","station_code":"TRK","latitude":"37.527229000319508","longitude":"-120.798008999808872","timezone":-8},"NFL":{"name":"Niagara Falls, New York, United States","city":"Niagara Falls","state":"NY","station_code":"NFL","latitude":"43.113547999717156","longitude":"-79.031864999616062","timezone":-5},"LVW":{"name":"Longview, Texas","city":"Longview","state":"TX","station_code":"LVW","latitude":"32.494031999657494","longitude":"-94.728321999629415","timezone":-6},"WPK":{"name":"Winter Park, Florida","city":"Winter Park","state":"FL","station_code":"WPK","latitude":"28.597105999697717","longitude":"-81.352009000091556","timezone":-5},"ASD":{"name":"Ashland, Virginia","city":"Ashland","state":"VA","station_code":"ASD","latitude":"37.759595999753905","longitude":"-77.481304000190164","timezone":-5},"WTN":{"name":"Williston, North Dakota","city":"Williston","state":"ND","station_code":"WTN","latitude":"48.142999999993748","longitude":"-103.620925999573458","timezone":-6},"MDR":{"name":"Madera, California","city":"Madera","state":"CA","station_code":"MDR","latitude":"37.022471000205414","longitude":"-120.074979999887645","timezone":-8},"TUS":{"name":"Tucson, Arizona","city":"Tucson","state":"AZ","station_code":"TUS","latitude":"32.22297700035903","longitude":"-110.96677000023081","timezone":-7},"BRK":{"name":"Visitor's Center","city":"Brunswick","state":"ME","station_code":"BRK","latitude":"43.911245000099655","longitude":"-69.965494000181124","timezone":-5},"LEE":{"name":"Lees Summit, Missouri","city":"Lees Summit","state":"MO","station_code":"LEE","latitude":"38.912623000177796","longitude":"-94.377971999624222","timezone":-6},"ROY":{"name":"Royal Oak, Michigan","city":"Royal Oak","state":"MI","station_code":"ROY","latitude":"42.48843900028033","longitude":"-83.147010000150701","timezone":-5},"LSE":{"name":"LaCrosse, Wisconsin","city":"La Crosse","state":"WI","station_code":"LSE","latitude":"43.833154999982909","longitude":"-91.247297999801575","timezone":-6},"EFG":{"name":"Effingham, Illinois","city":"Effingham","state":"IL","station_code":"EFG","latitude":"39.117058999888719","longitude":"-88.547109999856431","timezone":-6},"CTL":{"name":"Centralia, Washington","city":"Centralia","state":"WA","station_code":"CTL","latitude":"46.717469999912538","longitude":"-122.953061999876084","timezone":-8},"HOL":{"name":"Hollywood, Florida","city":"Hollywood","state":"FL","station_code":"HOL","latitude":"26.011640999899392","longitude":"-80.16788400041122","timezone":-5},"MYS":{"name":"Mystic, Connecticut","city":"Mystic","state":"CT","station_code":"MYS","latitude":"41.350933999727665","longitude":"-71.963093000278576","timezone":-5},"YNY":{"name":"Yonkers, New York","city":"Yonkers","state":"NY","station_code":"YNY","latitude":"40.935585999715144","longitude":"-73.902262999725266","timezone":-5},"DFB":{"name":"Deerfield Beach, Florida","city":"Deerfield Beach","state":"FL","station_code":"DFB","latitude":"26.3170690001715","longitude":"-80.122146999965764","timezone":-5},"HEM":{"name":"Hermann, Missouri","city":"Hermann","state":"MO","station_code":"HEM","latitude":"38.707283000292009","longitude":"-91.432558000121702","timezone":-6},"BNC":{"name":"Burlington, North Carolina","city":"Burlington","state":"NC","station_code":"BNC","latitude":"36.094224999649462","longitude":"-79.434530999797857","timezone":-5},"MDT":{"name":"Mendota, Illinois","city":"Mendota","state":"IL","station_code":"MDT","latitude":"41.549584000120007","longitude":"-89.11792000039803","timezone":-6},"TRM":{"name":"Troy, MI","city":"Troy","state":"MI","station_code":"TRM","latitude":"42.542555000326665","longitude":"-83.191026000089991","timezone":-5},"PSC":{"name":"Pasco, Washington","city":"Pasco","state":"WA","station_code":"PSC","latitude":"46.237012000058776","longitude":"-119.087728999933887","timezone":-8},"JXN":{"name":"Jackson, Michigan","city":"Jackson","state":"MI","station_code":"JXN","latitude":"42.248113000006178","longitude":"-84.399669999817391","timezone":-5},"DLD":{"name":"Deland, Florida","city":"DeLand","state":"FL","station_code":"DLD","latitude":"29.01784900019355","longitude":"-81.352476999896695","timezone":-5},"JST":{"name":"Johnstown, Pennsylvania","city":"Johnstown","state":"PA","station_code":"JST","latitude":"40.329689000249274","longitude":"-78.92199599992118","timezone":-5},"ALT":{"name":"Altoona, Pennsylvania","city":"Altoona","state":"PA","station_code":"ALT","latitude":"40.514474999940404","longitude":"-78.401620000289853","timezone":-5},"WTH":{"name":"Winter Haven, Florida","city":"Winter Haven","state":"FL","station_code":"WTH","latitude":"28.002145999622673","longitude":"-81.734877999907127","timezone":-5},"SAL":{"name":"Salisbury, North Carolina","city":"Salisbury","state":"NC","station_code":"SAL","latitude":"35.667496000083602","longitude":"-80.466323000295731","timezone":-5},"MSS":{"name":"Manassas, Virginia","city":"Manassas","state":"VA","station_code":"MSS","latitude":"38.750084000073265","longitude":"-77.47257700015561","timezone":-5},"FAR":{"name":"Fargo, North Dakota","city":"Fargo","state":"ND","station_code":"FAR","latitude":"46.880981999891809","longitude":"-96.785372000201605","timezone":-6},"WOB":{"name":"Woburn, Massachusetts","city":"Woburn","state":"MA","station_code":"WOB","latitude":"42.517357999961973","longitude":"-71.143822999579726","timezone":-5},"SNS":{"name":"Salinas, California","city":"Salinas","state":"CA","station_code":"SNS","latitude":"36.679144999717316","longitude":"-121.656745000295274","timezone":-8},"SOB":{"name":"South Bend, Indiana","city":"South Bend","state":"IN","station_code":"SOB","latitude":"41.678359999684858","longitude":"-86.287344999968369","timezone":-5},"EKH":{"name":"Elkhart, Indiana","city":"Elkhart","state":"IN","station_code":"EKH","latitude":"41.680748000169835","longitude":"-85.971847999849857","timezone":-5},"CEN":{"name":"Centralia, Illinois","city":"Centralia","state":"IL","station_code":"CEN","latitude":"38.52753100024244","longitude":"-89.136117999558522","timezone":-6},"LCN":{"name":"Lincoln, Illinois","city":"Lincoln","state":"IL","station_code":"LCN","latitude":"40.147855000193672","longitude":"-89.363699000149396","timezone":-6},"NBU":{"name":"New Buffalo, MI","city":"New Buffalo","state":"MI","station_code":"NBU","latitude":"41.796656000038311","longitude":"-86.745781999961238","timezone":-5},"WTI":{"name":"Waterloo, Indiana","city":"Waterloo","state":"IN","station_code":"WTI","latitude":"41.431816000097989","longitude":"-85.024297999860323","timezone":-5},"PTH":{"name":"Port Huron, Michigan","city":"Port Huron","state":"MI","station_code":"PTH","latitude":"42.960419000209818","longitude":"-82.443805000359859","timezone":-5},"KKI":{"name":"Kankakee, Illinois","city":"Kankakee","state":"IL","station_code":"KKI","latitude":"41.119258999663678","longitude":"-87.865429999712319","timezone":-6},"HOS":{"name":"Houston, Texas","city":"Houston","state":"TX","station_code":"HOS","latitude":"29.767245000191611","longitude":"-95.367525999692063","timezone":-6},"GVB":{"name":"Grover Beach, California","city":"Grover Beach","state":"CA","station_code":"GVB","latitude":"35.121259999911793","longitude":"-120.629266000122641","timezone":-8},"ESX":{"name":"Essex Junction, Vermont","city":"Essex Junction-Burlington","state":"VT","station_code":"ESX","latitude":"44.492465999952401","longitude":"-73.110277000043283","timezone":-5},"WIN":{"name":"Winona, Minnesota","city":"Winona","state":"MN","station_code":"WIN","latitude":"44.044403999753527","longitude":"-91.640072999834544","timezone":-6},"SRB":{"name":"Sorrento Valley, CA","city":"Sorrento Valley","state":"CA","station_code":"SRB","latitude":"32.902683999784678","longitude":"-117.224891999672209","timezone":-8},"QAN":{"name":"Quantico, Virginia","city":"Quantico","state":"VA","station_code":"QAN","latitude":"38.521882000026601","longitude":"-77.293026999903475","timezone":-5},"KAN":{"name":"Kannapolis, North Carolina","city":"Kannapolis","state":"NC","station_code":"KAN","latitude":"35.496172000130727","longitude":"-80.624927999960974","timezone":-5},"MVW":{"name":"Mount Vernon, Washington","city":"Mount Vernon","state":"WA","station_code":"MVW","latitude":"48.418470000234464","longitude":"-122.334738000103002","timezone":-8},"LAF":{"name":"Lafayette, Indiana","city":"Lafayette","state":"IN","station_code":"LAF","latitude":"40.419346999964169","longitude":"-86.89590099961633","timezone":-5},"LRK":{"name":"Little Rock, Arkansas","city":"Little Rock","state":"AR","station_code":"LRK","latitude":"34.750297999676263","longitude":"-92.286784999565967","timezone":-6},"MDN":{"name":"Meriden, Connecticut","city":"Meriden","state":"CT","station_code":"MDN","latitude":"41.539385000211773","longitude":"-72.800678000313752","timezone":-5},"MPK":{"name":"Moorpark, California","city":"Moorpark","state":"CA","station_code":"MPK","latitude":"34.284759999847964","longitude":"-118.878059000244946","timezone":-8},"NHT":{"name":"Northampton, MA","city":"Northampton","state":"MA","station_code":"NHT","latitude":"42.318857999967868","longitude":"-72.626378999646988","timezone":-5},"KEE":{"name":"Kewanee, Illinois","city":"Kewanee","state":"IL","station_code":"KEE","latitude":"41.24576500014777","longitude":"-89.927544000272164","timezone":-6},"WNL":{"name":"Windsor Locks, Connecticut","city":"Windsor Locks","state":"CT","station_code":"WNL","latitude":"41.913956000123306","longitude":"-72.626100999812635","timezone":-5},"NLS":{"name":"Niles, Michigan","city":"Niles","state":"MI","station_code":"NLS","latitude":"41.837411999703825","longitude":"-86.252372000431123","timezone":-5},"RAT":{"name":"Raton, New Mexico","city":"Raton","state":"NM","station_code":"RAT","latitude":"36.901072000339461","longitude":"-104.437885999587195","timezone":-7},"SBG":{"name":"Sebring, Florida","city":"Sebring","state":"FL","station_code":"SBG","latitude":"27.496631999745169","longitude":"-81.434202000030737","timezone":-5},"RLN":{"name":"Rocklin, California","city":"Rocklin","state":"CA","station_code":"RLN","latitude":"38.791006000010533","longitude":"-121.237298999713843","timezone":-8},"ERI":{"name":"Erie, Pennsylvania","city":"Erie","state":"PA","station_code":"ERI","latitude":"42.120847000223769","longitude":"-80.082444000351714","timezone":-5},"BER":{"name":"Berlin, Connecticut","city":"Berlin","state":"CT","station_code":"BER","latitude":"41.635595000112026","longitude":"-72.765273999882965","timezone":-5},"BRA":{"name":"Brattleboro, Vermont","city":"Brattleboro","state":"VT","station_code":"BRA","latitude":"42.850849000324367","longitude":"-72.556497000146592","timezone":-5},"OSC":{"name":"Osceola, Iowa","city":"Osceola","state":"IA","station_code":"OSC","latitude":"41.037116000219562","longitude":"-93.764894000311969","timezone":-6},"WAH":{"name":"Washington, Missouri","city":"Washington","state":"MO","station_code":"WAH","latitude":"38.561465999674688","longitude":"-91.012717000428381","timezone":-6},"ARN":{"name":"Auburn, California","city":"Auburn","state":"CA","station_code":"ARN","latitude":"38.90363799995432","longitude":"-121.083187000298949","timezone":-8},"ORB":{"name":"Old Orchard Beach, Maine (Seasonal)","city":"Old Orchard Beach","state":"ME","station_code":"ORB","latitude":"43.514326000107864","longitude":"-70.37622500042356","timezone":-5},"GLP":{"name":"Gallup, New Mexico","city":"Gallup","state":"NM","station_code":"GLP","latitude":"35.529176000032379","longitude":"-108.740547999626997","timezone":-7},"TPL":{"name":"Temple, Texas","city":"Temple","state":"TX","station_code":"TPL","latitude":"31.095883000236626","longitude":"-97.345791999928821","timezone":-6},"COT":{"name":"Coatesville, Pennsylvania","city":"Coatesville","state":"PA","station_code":"COT","latitude":"39.985688000163648","longitude":"-75.820929000422666","timezone":-5},"SNP":{"name":"San Clemente Pier, California","city":"San Clemente Pier","state":"CA","station_code":"SNP","latitude":"33.419644999750275","longitude":"-117.619732999992848","timezone":-8},"PON":{"name":"Pontiac, Illinois","city":"Pontiac","state":"IL","station_code":"PON","latitude":"40.87965199975897","longitude":"-88.636601000300374","timezone":-6},"CLP":{"name":"Culpeper, Virginia","city":"Culpeper","state":"VA","station_code":"CLP","latitude":"38.472360000221734","longitude":"-77.99342099959209","timezone":-5},"WEN":{"name":"Wenatchee, Washington","city":"Wenatchee","state":"WA","station_code":"WEN","latitude":"47.421556000104104","longitude":"-120.306551999690186","timezone":-8},"GWD":{"name":"Greenwood, Mississippi","city":"Greenwood","state":"MS","station_code":"GWD","latitude":"33.517158999653745","longitude":"-90.176453999792869","timezone":-6},"ORC":{"name":"Oregon City, Oregon","city":"Oregon City","state":"OR","station_code":"ORC","latitude":"45.366145999865587","longitude":"-122.595924999727288","timezone":-8},"LNK":{"name":"Lincoln, Nebraska","city":"Lincoln","state":"NE","station_code":"LNK","latitude":"40.815870999838133","longitude":"-96.713169999970347","timezone":-6},"TRU":{"name":"Truckee, California","city":"Truckee","state":"CA","station_code":"TRU","latitude":"39.32761600003245","longitude":"-120.185386999707859","timezone":-8},"ELP":{"name":"El Paso, Texas","city":"El Paso","state":"TX","station_code":"ELP","latitude":"31.757346000010379","longitude":"-106.495644000164035","timezone":-7},"LKL":{"name":"Lakeland, Florida","city":"Lakeland","state":"FL","station_code":"LKL","latitude":"28.045603000337614","longitude":"-81.951873999689923","timezone":-5},"WDL":{"name":"Wisconsin Dells, Wisconsin","city":"Wisconsin Dells","state":"WI","station_code":"WDL","latitude":"43.62650899990664","longitude":"-89.777450999658029","timezone":-6},"RUD":{"name":"Rutland, Vermont","city":"Rutland","state":"VT","station_code":"RUD","latitude":"43.605755999829881","longitude":"-72.981538000269992","timezone":-5},"CBS":{"name":"Columbus, Wisconsin","city":"Columbus","state":"WI","station_code":"CBS","latitude":"43.34061100023775","longitude":"-89.012609000352498","timezone":-6},"GFK":{"name":"Grand Forks, North Dakota","city":"Grand Forks","state":"ND","station_code":"GFK","latitude":"47.917522000166393","longitude":"-97.110834999913692","timezone":-6},"NFS":{"name":"VIA Rail Canada Station","city":"Niagara Falls","state":"ND","station_code":"NFS","latitude":"43.108736000001102","longitude":"-79.063291000355647","timezone":-5},"WAR":{"name":"Warrensburg, Missouri","city":"Warrensburg","state":"MO","station_code":"WAR","latitude":"38.762750000314739","longitude":"-93.740899999971447","timezone":-6},"GPK":{"name":"East Glacier Park, Montana","city":"East Glacier Park","state":"MT","station_code":"GPK","latitude":"48.442333000062831","longitude":"-113.219522999844358","timezone":-7},"NEW":{"name":"Newton, Kansas","city":"Newton","state":"KS","station_code":"NEW","latitude":"38.046976000313798","longitude":"-97.344885999557434","timezone":-6},"WRJ":{"name":"White River Jct., Vermont","city":"White River Junction","state":"VT","station_code":"WRJ","latitude":"43.647785000245143","longitude":"-72.317272000012025","timezone":-5},"GNB":{"name":"Greensburg, Pennsylvania","city":"Greensburg","state":"PA","station_code":"GNB","latitude":"40.304986000158927","longitude":"-79.546892999577622","timezone":-5},"MTP":{"name":"Mt. Pleasant, Iowa","city":"Mount Pleasant","state":"IA","station_code":"MTP","latitude":"40.971178999906982","longitude":"-91.550772000259727","timezone":-6},"PLB":{"name":"Plattsburgh, New York","city":"Plattsburgh","state":"NY","station_code":"PLB","latitude":"44.696728000267541","longitude":"-73.44628399965724","timezone":-5},"DLB":{"name":"Delray Beach, Florida","city":"Delray Beach","state":"FL","station_code":"DLB","latitude":"26.454020999605159","longitude":"-80.091153999769517","timezone":-5},"CIC":{"name":"Chico, California","city":"Chico","state":"CA","station_code":"CIC","latitude":"39.723259000085733","longitude":"-121.845861000107874","timezone":-8},"SSM":{"name":"Selma, North Carolina","city":"Selma-Smithfield","state":"NC","station_code":"SSM","latitude":"35.532785999938064","longitude":"-78.280098999757072","timezone":-5},"NRK":{"name":"Newark, Delaware","city":"Newark","state":"DE","station_code":"NRK","latitude":"39.669685999790893","longitude":"-75.753513000344682","timezone":-5},"PNT":{"name":"Pontiac, Michigan","city":"Pontiac","state":"MI","station_code":"PNT","latitude":"42.63277099991641","longitude":"-83.292325000109145","timezone":-5},"TOH":{"name":"Tomah, Wisconsin","city":"Tomah","state":"WI","station_code":"TOH","latitude":"43.986006999750444","longitude":"-90.505331000029855","timezone":-6},"RIV":{"name":"Riverside, California","city":"Riverside-Downtown","state":"CA","station_code":"RIV","latitude":"33.975669999685884","longitude":"-117.369988000245868","timezone":-8},"SJM":{"name":"St. Joseph, Michigan","city":"St. Joseph-Benton Harbor","state":"MI","station_code":"SJM","latitude":"42.109079999837682","longitude":"-86.484484000008848","timezone":-5},"DRD":{"name":"Durand, Michigan","city":"Durand","state":"MI","station_code":"DRD","latitude":"42.909495000281588","longitude":"-83.982319999660831","timezone":-5},"PAK":{"name":"Palatka, Florida","city":"Palatka","state":"FL","station_code":"PAK","latitude":"29.649733999972486","longitude":"-81.640470999613569","timezone":-5},"GUA":{"name":"Guadalupe, California","city":"Guadalupe","state":"CA","station_code":"GUA","latitude":"34.962926999678103","longitude":"-120.57340999992276","timezone":-8},"KTR":{"name":"Kingstree, South Carolina","city":"Kingstree","state":"SC","station_code":"KTR","latitude":"33.663882000286428","longitude":"-79.829025999613762","timezone":-5},"HMD":{"name":"Hammond, Louisiana","city":"Hammond","state":"LA","station_code":"HMD","latitude":"30.507179999961544","longitude":"-90.462168999685076","timezone":-6},"OTM":{"name":"Ottumwa, Iowa","city":"Ottumwa","state":"IA","station_code":"OTM","latitude":"41.018815000118494","longitude":"-92.414929000210819","timezone":-6},"LAG":{"name":"La Grange, Illinois","city":"LaGrange Road","state":"IL","station_code":"LAG","latitude":"41.815633999724682","longitude":"-87.871544999836303","timezone":-6},"PRB":{"name":"Paso Robles, California","city":"Paso Robles","state":"CA","station_code":"PRB","latitude":"35.622683000096217","longitude":"-120.687859999731486","timezone":-8},"GRV":{"name":"Greenville, South Carolina","city":"Greenville","state":"SC","station_code":"GRV","latitude":"34.858255999875503","longitude":"-82.413485999833085","timezone":-5},"CIN":{"name":"Cincinnati, Ohio","city":"Cincinnati","state":"OH","station_code":"CIN","latitude":"39.10992700012757","longitude":"-84.537061000180501","timezone":-5},"SNB":{"name":"San Bernardino (Amtrak Station), California","city":"San Bernardino","state":"CA","station_code":"SNB","latitude":"34.104112000347939","longitude":"-117.31065899996986","timezone":-8},"HAV":{"name":"Havre, Montana","city":"Havre","state":"MT","station_code":"HAV","latitude":"48.554464999922516","longitude":"-109.678352000130985","timezone":-7},"NOR":{"name":"Norman, Oklahoma","city":"Norman","state":"OK","station_code":"NOR","latitude":"35.219962999951179","longitude":"-97.44301299979935","timezone":-6},"LAP":{"name":"La Plata, Missouri","city":"La Plata","state":"MO","station_code":"LAP","latitude":"40.02921999970669","longitude":"-92.493383999759999","timezone":-6},"CUM":{"name":"Cumberland, Maryland","city":"Cumberland","state":"MD","station_code":"CUM","latitude":"39.650627999745979","longitude":"-78.758000000030194","timezone":-5},"SCD":{"name":"St. Cloud, Minnesota","city":"St. Cloud","state":"MN","station_code":"SCD","latitude":"45.567748000221023","longitude":"-94.149092999923127","timezone":-6},"FRE":{"name":"Freeport, ME","city":"Freeport","state":"ME","station_code":"FRE","latitude":"43.855034999776656","longitude":"-70.102358000289541","timezone":-5},"LMY":{"name":"Lamy, New Mexico","city":"Lamy","state":"NM","station_code":"LMY","latitude":"35.480972999659059","longitude":"-105.879968000286553","timezone":-7},"RDD":{"name":"Redding (Amtrak Station), California","city":"Redding","state":"CA","station_code":"RDD","latitude":"40.583594999849595","longitude":"-122.393370000245014","timezone":-8},"MRC":{"name":"Maricopa, Arizona","city":"Maricopa","state":"AZ","station_code":"MRC","latitude":"33.056284000111106","longitude":"-112.047137000142271","timezone":-7},"SMT":{"name":"Summit, Illinois","city":"Summit","state":"IL","station_code":"SMT","latitude":"41.794911999900407","longitude":"-87.809741999741945","timezone":-6},"MRB":{"name":"Martinsburg, West Virginia","city":"Martinsburg","state":"WV","station_code":"MRB","latitude":"39.458660999759807","longitude":"-77.961013999934679","timezone":-5},"SBY":{"name":"Shelby, Montana","city":"Shelby","state":"MT","station_code":"SBY","latitude":"48.506747999978941","longitude":"-111.856648999802971","timezone":-7},"YEM":{"name":"Yemassee, South Carolina","city":"Yemassee","state":"SC","station_code":"YEM","latitude":"32.688286000049764","longitude":"-80.846900999692792","timezone":-5},"HUN":{"name":"Huntington, West Virginia","city":"Huntington","state":"WV","station_code":"HUN","latitude":"38.415819999880014","longitude":"-82.439734999708833","timezone":-5},"TCL":{"name":"Tuscaloosa, Alabama","city":"Tuscaloosa","state":"AL","station_code":"TCL","latitude":"33.19316500022402","longitude":"-87.560227999973634","timezone":-6},"CMO":{"name":"Chemult, Oregon","city":"Chemult","state":"OR","station_code":"CMO","latitude":"43.216783999958906","longitude":"-121.781594000240929","timezone":-8},"AMS":{"name":"Amsterdam, New York","city":"Amsterdam","state":"NY","station_code":"AMS","latitude":"42.953718999821","longitude":"-74.219499999718224","timezone":-5},"TOP":{"name":"Topeka, Kansas","city":"Topeka","state":"KS","station_code":"TOP","latitude":"39.051414999812565","longitude":"-95.664915999988409","timezone":-6},"MEI":{"name":"Meridian, Mississippi","city":"Meridian","state":"MS","station_code":"MEI","latitude":"32.364165999816592","longitude":"-88.696568000260854","timezone":-6},"CRV":{"name":"Carlinville, Illinois","city":"Carlinville","state":"IL","station_code":"CRV","latitude":"39.279294999917084","longitude":"-89.889276000035693","timezone":-6},"JSP":{"name":"Jesup, Georgia","city":"Jesup","state":"GA","station_code":"JSP","latitude":"31.605588999629536","longitude":"-81.882172999939513","timezone":-5},"FED":{"name":"Fort Edward-Glens Falls, New York","city":"Fort Edward-Glens Falls","state":"NY","station_code":"FED","latitude":"43.269602999868972","longitude":"-73.580550000098768","timezone":-5},"WDB":{"name":"Woodbridge, Virginia","city":"Woodbridge","state":"VA","station_code":"WDB","latitude":"38.658914999759261","longitude":"-77.247851999872793","timezone":-5},"KNG":{"name":"Kingman, Arizona","city":"Kingman","state":"AZ","station_code":"KNG","latitude":"35.188278999928677","longitude":"-114.052816000368978","timezone":-7},"SED":{"name":"Sedalia, Missouri","city":"Sedalia","state":"MO","station_code":"SED","latitude":"38.711604000007974","longitude":"-93.228705999678311","timezone":-6},"CHW":{"name":"Charleston, West Virginia","city":"Charleston","state":"WV","station_code":"CHW","latitude":"38.346367999788562","longitude":"-81.638493999912683","timezone":-5},"SKY":{"name":"Sandusky, Ohio","city":"Sandusky","state":"OH","station_code":"SKY","latitude":"41.440670999776458","longitude":"-82.717865999764314","timezone":-5},"HBG":{"name":"Hattiesburg, Mississippi","city":"Hattiesburg","state":"MS","station_code":"HBG","latitude":"31.326920999930714","longitude":"-89.286463000067712","timezone":-6},"LEW":{"name":"Lewistown, Pennsylvania","city":"Lewistown","state":"PA","station_code":"LEW","latitude":"40.588309000083861","longitude":"-77.580047000375217","timezone":-5},"LPE":{"name":"Lapeer, Michigan","city":"Lapeer","state":"MI","station_code":"LPE","latitude":"43.049519999979474","longitude":"-83.306153999766167","timezone":-5},"DWT":{"name":"Dwight, Illinois","city":"Dwight","state":"IL","station_code":"DWT","latitude":"41.08985399984202","longitude":"-88.430706999737936","timezone":-6},"WFD":{"name":"Wallingford, Connecticut","city":"Wallingford","state":"CT","station_code":"WFD","latitude":"41.456969000156967","longitude":"-72.825220999751949","timezone":-5},"BRL":{"name":"Burlington, Iowa","city":"Burlington","state":"IA","station_code":"BRL","latitude":"40.805787999767851","longitude":"-91.101951000056062","timezone":-6},"ROM":{"name":"Rome, New York","city":"Rome","state":"NY","station_code":"ROM","latitude":"43.1994250003006","longitude":"-75.449960000243806","timezone":-5},"WND":{"name":"Windsor, Connecticut","city":"Windsor","state":"CT","station_code":"WND","latitude":"41.85201299987289","longitude":"-72.642252999675264","timezone":-5},"WIP":{"name":"Winter Park/Fraser, Colorado","city":"Fraser-Winter Park","state":"CO","station_code":"WIP","latitude":"39.947566000083079","longitude":"-105.817387999692272","timezone":-7},"DQN":{"name":"Du Quoin, Illinois","city":"Du Quoin","state":"IL","station_code":"DQN","latitude":"38.012327999877158","longitude":"-89.240253999619171","timezone":-6},"LOD":{"name":"Lodi, California","city":"Lodi","state":"CA","station_code":"LOD","latitude":"38.133200999956912","longitude":"-121.271887000184947","timezone":-8},"LRC":{"name":"Lawrence, Kansas","city":"Lawrence","state":"KS","station_code":"LRC","latitude":"38.971166000263111","longitude":"-95.230538999560011","timezone":-6},"RDW":{"name":"Red Wing, Minnesota","city":"Red Wing","state":"MN","station_code":"RDW","latitude":"44.566213999846056","longitude":"-92.537065999788467","timezone":-6},"WMJ":{"name":"Williams Junction, Arizona","city":"Williams Junction","state":"AZ","station_code":"WMJ","latitude":"35.251949999942966","longitude":"-112.190106000328896","timezone":-7},"NDL":{"name":"Needles, California","city":"Needles","state":"CA","station_code":"NDL","latitude":"34.839963999977776","longitude":"-114.60463499956002","timezone":-8},"MHL":{"name":"Marshall, Texas","city":"Marshall","state":"TX","station_code":"MHL","latitude":"32.551548999693019","longitude":"-94.366995000077324","timezone":-6},"IDP":{"name":"Independence, Missouri","city":"Independence","state":"MO","station_code":"IDP","latitude":"39.086917000241847","longitude":"-94.429711000215732","timezone":-6},"LPS":{"name":"Lompoc-Surf, California","city":"Lompoc-Surf","state":"CA","station_code":"LPS","latitude":"34.682704000194818","longitude":"-120.605000999620458","timezone":-8},"LWA":{"name":"Leavenworth, WA","city":"Leavenworth","state":"WA","station_code":"LWA","latitude":"47.606493000156654","longitude":"-120.643965000166034","timezone":-8},"NBK":{"name":"New Brunswick, New Jersey","city":"New Brunswick","state":"NJ","station_code":"NBK","latitude":"40.496521999883591","longitude":"-74.446265000349399","timezone":-5},"PIT":{"name":"Pittsfield, Massachusetts","city":"Pittsfield","state":"MA","station_code":"PIT","latitude":"42.451557999994826","longitude":"-73.253800000248802","timezone":-5},"POG":{"name":"Portage, Wisconsin","city":"Portage","state":"WI","station_code":"POG","latitude":"43.547078999905921","longitude":"-89.467626999797574","timezone":-6},"MPR":{"name":"Montpelier, Vermont","city":"Montpelier-Berlin","state":"VT","station_code":"MPR","latitude":"44.255748999716516","longitude":"-72.606393999858128","timezone":-5},"DIL":{"name":"Dillon, South Carolina","city":"Dillon","state":"SC","station_code":"DIL","latitude":"34.417647000275259","longitude":"-79.37230099990623","timezone":-5},"ENC":{"name":"Encinitas, CA","city":"Encinitas","state":"CA","station_code":"ENC","latitude":"33.047109000035121","longitude":"-117.293204000075832","timezone":-8},"ELK":{"name":"Elko, Nevada","city":"Elko","state":"NV","station_code":"ELK","latitude":"40.836482999960225","longitude":"-115.750530000435333","timezone":-8},"SPT":{"name":"Sandpoint, Idaho","city":"Sandpoint","state":"ID","station_code":"SPT","latitude":"48.276234000153693","longitude":"-116.545583000312604","timezone":-8},"GCK":{"name":"Garden City, Kansas","city":"Garden City","state":"KS","station_code":"GCK","latitude":"37.964365000286534","longitude":"-100.8732560001839","timezone":-6},"HFY":{"name":"Harpers Ferry, West Virginia","city":"Harpers Ferry","state":"WV","station_code":"HFY","latitude":"39.324452000160399","longitude":"-77.731078000249468","timezone":-5},"HIN":{"name":"Hinton, West Virginia","city":"Hinton","state":"WV","station_code":"HIN","latitude":"37.675036999928494","longitude":"-80.892232000257366","timezone":-5},"CBV":{"name":"Carlsbad Village, CA","city":"Carlsbad Village","state":"CA","station_code":"CBV","latitude":"33.160989000124331","longitude":"-117.350729999829923","timezone":-8},"ADM":{"name":"Ardmore, Oklahoma","city":"Ardmore","state":"OK","station_code":"ADM","latitude":"34.172464999671","longitude":"-97.125509999667614","timezone":-6},"DAN":{"name":"Danville, Virginia","city":"Danville","state":"VA","station_code":"DAN","latitude":"36.584089999878628","longitude":"-79.383967999914447","timezone":-5},"SOP":{"name":"Southern Pines, North Carolina","city":"Southern Pines","state":"NC","station_code":"SOP","latitude":"35.175068999822152","longitude":"-79.390303000146432","timezone":-5},"POI":{"name":"Carlsbad Poinsettia, CA","city":"Carlsbad Poinsettia","state":"CA","station_code":"POI","latitude":"33.109247999782596","longitude":"-117.31874300029709","timezone":-8},"LAJ":{"name":"La Junta, Colorado","city":"La Junta","state":"CO","station_code":"LAJ","latitude":"37.988249000330534","longitude":"-103.543575999688997","timezone":-7},"SMC":{"name":"San Marcos, Texas","city":"San Marcos","state":"TX","station_code":"SMC","latitude":"29.876571000347269","longitude":"-97.941048999649155","timezone":-6},"LFT":{"name":"Lafayette, Louisiana","city":"Lafayette","state":"LA","station_code":"LFT","latitude":"30.226547999863914","longitude":"-92.014519000287493","timezone":-6},"VRV":{"name":"Victorville, California","city":"Victorville","state":"CA","station_code":"VRV","latitude":"34.537200000078187","longitude":"-117.292956000378723","timezone":-8},"FMD":{"name":"Fort Madison, Iowa","city":"Fort Madison","state":"IA","station_code":"FMD","latitude":"40.622590999747217","longitude":"-91.336983000414264","timezone":-6},"PLO":{"name":"Plano, Illinois","city":"Plano","state":"IL","station_code":"PLO","latitude":"41.662383999887105","longitude":"-88.538272000392112","timezone":-6},"GLE":{"name":"Gainesville, Texas","city":"Gainesville","state":"TX","station_code":"GLE","latitude":"33.625158999818943","longitude":"-97.140895999799255","timezone":-6},"COX":{"name":"Colfax, California","city":"Colfax","state":"CA","station_code":"COX","latitude":"39.098873999702761","longitude":"-120.952912999792318","timezone":-8},"WGL":{"name":"West Glacier, Montana","city":"West Glacier","state":"MT","station_code":"WGL","latitude":"48.496217999989064","longitude":"-113.979163999793215","timezone":-7},"STA":{"name":"Staunton, Virginia","city":"Staunton","state":"VA","station_code":"STA","latitude":"38.147639000018302","longitude":"-79.071775999642554","timezone":-5},"BCV":{"name":"Burke Centre, VA","city":"Burke Centre","state":"VA","station_code":"BCV","latitude":"38.797270999959935","longitude":"-77.298789999674938","timezone":-5},"TXA":{"name":"Texarkana, Arkansas","city":"Texarkana","state":"AR","station_code":"TXA","latitude":"33.420066999842618","longitude":"-94.043082000268853","timezone":-6},"WOR":{"name":"Worcester, Massachusetts","city":"Worcester","state":"MA","station_code":"WOR","latitude":"42.261477999749403","longitude":"-71.794811999651387","timezone":-5},"SPL":{"name":"Staples, Minnesota","city":"Staples","state":"MN","station_code":"SPL","latitude":"46.354601000174689","longitude":"-94.795331000001624","timezone":-6},"MIN":{"name":"Mineola, Texas","city":"Mineola","state":"TX","station_code":"MIN","latitude":"32.662048999785199","longitude":"-95.489099999928314","timezone":-6},"LAK":{"name":"Lakeland, Florida","city":"Lakeland","state":"FL","station_code":"LAK","latitude":"28.045603000337614","longitude":"-81.951873999689923","timezone":-5},"HGD":{"name":"Huntingdon, Pennsylvania","city":"Huntingdon","state":"PA","station_code":"HGD","latitude":"40.483664999683285","longitude":"-78.011780000207651","timezone":-5},"ELY":{"name":"Elyria, Ohio","city":"Elyria","state":"OH","station_code":"ELY","latitude":"41.370033000285474","longitude":"-82.09668499985824","timezone":-5},"SDL":{"name":"Slidell, Louisiana","city":"Slidell","state":"LA","station_code":"SDL","latitude":"30.278372000109297","longitude":"-89.782564999874353","timezone":-6},"DUN":{"name":"Dunsmuir (Amtrak Station), California","city":"Dunsmuir","state":"CA","station_code":"DUN","latitude":"41.21112699994022","longitude":"-122.270586999688689","timezone":-8},"HMI":{"name":"Hammond-Whiting, Indiana","city":"Hammond-Whiting","state":"IN","station_code":"HMI","latitude":"41.691154999820391","longitude":"-87.506510999856332","timezone":-6},"GFD":{"name":"Greenfield, MA","city":"Greenfield","state":"MA","station_code":"GFD","latitude":"42.585457999990666","longitude":"-72.600764999980967","timezone":-5},"BYN":{"name":"Bryan, Ohio","city":"Bryan","state":"OH","station_code":"BYN","latitude":"41.480318999738991","longitude":"-84.551798999683641","timezone":-5},"TRI":{"name":"Trinidad, Colorado","city":"Trinidad","state":"CO","station_code":"TRI","latitude":"37.172688000034753","longitude":"-104.507981000421239","timezone":-7},"CRF":{"name":"Crawfordsville (Amtrak), Indiana","city":"Crawfordsville","state":"IN","station_code":"CRF","latitude":"40.044705000134883","longitude":"-86.899187000094699","timezone":-5},"MCB":{"name":"McComb, Mississippi","city":"McComb","state":"MS","station_code":"MCB","latitude":"31.244466999805091","longitude":"-90.451334000428389","timezone":-6},"WPT":{"name":"Wolf Point, Montana","city":"Wolf Point","state":"MT","station_code":"WPT","latitude":"48.091671999949817","longitude":"-105.642735999746407","timezone":-7},"RTL":{"name":"Rantoul, Illinois","city":"Rantoul","state":"IL","station_code":"RTL","latitude":"40.310904999916708","longitude":"-88.159125999999603","timezone":-6},"WSP":{"name":"Westport, New York","city":"Westport","state":"NY","station_code":"WSP","latitude":"44.187288000270385","longitude":"-73.451772999792311","timezone":-5},"RKV":{"name":"Rockville, Maryland","city":"Rockville","state":"MD","station_code":"RKV","latitude":"39.084547000170126","longitude":"-77.145994999636827","timezone":-5},"PRO":{"name":"Provo, Utah","city":"Provo","state":"UT","station_code":"PRO","latitude":"40.225956999843113","longitude":"-111.664001000363015","timezone":-7},"TAY":{"name":"Taylor, Texas","city":"Taylor","state":"TX","station_code":"TAY","latitude":"30.567666999809603","longitude":"-97.407763000252672","timezone":-6},"WAB":{"name":"Waterbury, Vermont","city":"Waterbury-Stowe","state":"VT","station_code":"WAB","latitude":"44.335010999957881","longitude":"-72.751805999900952","timezone":-5},"WSS":{"name":"White Sulphur Springs, West Virginia","city":"White Sulphur Springs","state":"WV","station_code":"WSS","latitude":"37.786443000107447","longitude":"-80.304003999631661","timezone":-5},"MCG":{"name":"McGregor, Texas","city":"McGregor","state":"TX","station_code":"MCG","latitude":"31.443352000318527","longitude":"-97.404756000331858","timezone":-6},"ALC":{"name":"Alliance, Ohio","city":"Alliance","state":"OH","station_code":"ALC","latitude":"40.921274999693978","longitude":"-81.092903999750121","timezone":-5},"ONA":{"name":"Ontario, California","city":"Ontario","state":"CA","station_code":"ONA","latitude":"34.061671999704551","longitude":"-117.649568999747544","timezone":-8},"STN":{"name":"Stanley, North Dakota","city":"Stanley","state":"ND","station_code":"STN","latitude":"48.319812999709782","longitude":"-102.389378999824842","timezone":-6},"HAS":{"name":"Hastings, Nebraska","city":"Hastings","state":"NE","station_code":"HAS","latitude":"40.584276000058026","longitude":"-98.387534000126749","timezone":-6},"GNS":{"name":"Gainesville, Georgia","city":"Gainesville","state":"GA","station_code":"GNS","latitude":"34.288896999799597","longitude":"-83.819693999748409","timezone":-5},"COV":{"name":"Connellsville, Pennsylvania","city":"Connellsville","state":"PA","station_code":"COV","latitude":"40.020281999719401","longitude":"-79.5928130003212","timezone":-5},"STW":{"name":"Stanwood, WA","city":"Stanwood","state":"WA","station_code":"STW","latitude":"48.242638000045304","longitude":"-122.349935000088749","timezone":-8},"LIB":{"name":"Libby, Montana","city":"Libby","state":"MT","station_code":"LIB","latitude":"48.394841999716085","longitude":"-115.548889999748653","timezone":-7},"ALP":{"name":"Alpine, Texas","city":"Alpine","state":"TX","station_code":"ALP","latitude":"30.357302000043013","longitude":"-103.66151299981756","timezone":-6},"DLK":{"name":"Detroit Lakes, Minnesota","city":"Detroit Lakes","state":"MN","station_code":"DLK","latitude":"46.819692000224109","longitude":"-95.845997999702504","timezone":-6},"DDG":{"name":"Dodge City, Kansas","city":"Dodge City","state":"KS","station_code":"DDG","latitude":"37.752305999979207","longitude":"-100.016960999903858","timezone":-6},"ATN":{"name":"Anniston, Alabama","city":"Anniston","state":"AL","station_code":"ATN","latitude":"33.649112000136924","longitude":"-85.832145000050104","timezone":-6},"LSV":{"name":"Las Vegas, New Mexico","city":"Las Vegas","state":"NM","station_code":"LSV","latitude":"35.593432000019114","longitude":"-105.212778999773363","timezone":-7},"PBF":{"name":"Poplar Bluff, Missouri","city":"Poplar Bluff","state":"MO","station_code":"PBF","latitude":"36.753995000230439","longitude":"-90.39334099979574","timezone":-6},"GGW":{"name":"Glasgow, Montana","city":"Glasgow","state":"MT","station_code":"GGW","latitude":"48.194853999995878","longitude":"-106.636188000037819","timezone":-7},"HAM":{"name":"Hamlet, North Carolina","city":"Hamlet","state":"NC","station_code":"HAM","latitude":"34.883663000081391","longitude":"-79.699218000160755","timezone":-5},"HUT":{"name":"Hutchinson, Kansas","city":"Hutchinson","state":"KS","station_code":"HUT","latitude":"38.055712000020932","longitude":"-97.931522000446748","timezone":-6},"GRA":{"name":"Granby, Colorado","city":"Granby","state":"CO","station_code":"GRA","latitude":"40.084187999980678","longitude":"-105.935503000096077","timezone":-7},"LAB":{"name":"Latrobe, Pennsylvania","city":"Latrobe","state":"PA","station_code":"LAB","latitude":"40.317405000334119","longitude":"-79.385082999624885","timezone":-5},"YUM":{"name":"Yuma, Arizona","city":"Yuma","state":"AZ","station_code":"YUM","latitude":"32.723139000037378","longitude":"-114.61557099999736","timezone":-7},"WLO":{"name":"Winslow, Arizona","city":"Winslow","state":"AZ","station_code":"WLO","latitude":"35.021666000313687","longitude":"-110.694981000080006","timezone":-7},"BLF":{"name":"Bellows Falls, Vermont","city":"Bellows Falls","state":"VT","station_code":"BLF","latitude":"43.136540000146177","longitude":"-72.444597000324165","timezone":-5},"CNV":{"name":"Castleton, VT","city":"Castleton","state":"VT","station_code":"CNV","latitude":"43.613381999697538","longitude":"-73.171336999972894","timezone":-5},"PVL":{"name":"Pauls Valley, Oklahoma","city":"Pauls Valley","state":"OK","station_code":"PVL","latitude":"34.741734999634104","longitude":"-97.218459999943988","timezone":-6},"BRH":{"name":"Brookhaven, Mississippi","city":"Brookhaven","state":"MS","station_code":"BRH","latitude":"31.582961000111748","longitude":"-90.441070000010683","timezone":-6},"DVL":{"name":"Devils Lake, North Dakota","city":"Devils Lake","state":"ND","station_code":"DVL","latitude":"48.11046800006384","longitude":"-98.861372000319847","timezone":-6},"OKE":{"name":"Okeechobee, Florida","city":"Okeechobee","state":"FL","station_code":"OKE","latitude":"27.251867000214002","longitude":"-80.830811999579353","timezone":-5},"RUG":{"name":"Rugby, North Dakota","city":"Rugby","state":"ND","station_code":"RUG","latitude":"48.369845999713263","longitude":"-99.997556000073132","timezone":-6},"DOA":{"name":"Dowagiac, Michigan","city":"Dowagiac","state":"MI","station_code":"DOA","latitude":"41.98094100007323","longitude":"-86.109040999846243","timezone":-5},"WNN":{"name":"Winnemucca, Nevada","city":"Winnemucca","state":"NV","station_code":"WNN","latitude":"40.969044000031573","longitude":"-117.732210000298679","timezone":-8},"BAM":{"name":"Bangor, Michigan","city":"Bangor","state":"MI","station_code":"BAM","latitude":"42.314519000308692","longitude":"-86.11164600008415","timezone":-5},"CRN":{"name":"Creston, Iowa","city":"Creston","state":"IA","station_code":"CRN","latitude":"41.05691999985801","longitude":"-94.361617000270329","timezone":-6},"CBR":{"name":"Cleburne, Texas","city":"Cleburne","state":"TX","station_code":"CBR","latitude":"32.349742999670596","longitude":"-97.382332999811339","timezone":-6},"MAL":{"name":"Malta, Montana","city":"Malta","state":"MT","station_code":"MAL","latitude":"48.36047700013912","longitude":"-107.872242000280465","timezone":-7},"YAZ":{"name":"Yazoo City, Mississippi","city":"Yazoo City","state":"MS","station_code":"YAZ","latitude":"32.848477000328401","longitude":"-90.415230000388874","timezone":-6},"SPB":{"name":"Spartanburg, South Carolina","city":"Spartanburg","state":"SC","station_code":"SPB","latitude":"34.953735999737994","longitude":"-81.936916999903687","timezone":-5},"FTN":{"name":"Fulton, Kentucky","city":"Fulton","state":"KY","station_code":"FTN","latitude":"36.525704000237553","longitude":"-88.888772000185114","timezone":-6},"BNG":{"name":"Bingen-White Salmon, Washington","city":"Bingen-White Salmon","state":"WA","station_code":"BNG","latitude":"45.71502000017724","longitude":"-121.468729999949403","timezone":-8},"NBN":{"name":"Newbern-Dyersburg, Tennessee","city":"Newbern-Dyersburg","state":"TN","station_code":"NBN","latitude":"36.112710999652485","longitude":"-89.262263999687789","timezone":-6},"LAU":{"name":"Laurel, Mississippi","city":"Laurel","state":"MS","station_code":"LAU","latitude":"31.692167999933233","longitude":"-89.127932999847246","timezone":-6},"MCI":{"name":"Michigan City, Indiana","city":"Michigan City","state":"IN","station_code":"MCI","latitude":"41.721102999844419","longitude":"-86.905385000059326","timezone":-6},"FMG":{"name":"Fort Morgan, Colorado","city":"Fort Morgan","state":"CO","station_code":"FMG","latitude":"40.247169000020037","longitude":"-103.802818000297776","timezone":-7},"LCH":{"name":"Lake Charles, Louisiana","city":"Lake Charles","state":"LA","station_code":"LCH","latitude":"30.238126000173057","longitude":"-93.217037000020284","timezone":-6},"EPH":{"name":"Ephrata, Washington","city":"Ephrata","state":"WA","station_code":"EPH","latitude":"47.320948000192466","longitude":"-119.549266999558895","timezone":-8},"DNK":{"name":"Denmark, South Carolina","city":"Denmark","state":"SC","station_code":"DNK","latitude":"33.326183999718836","longitude":"-81.143634999862996","timezone":-5},"CAM":{"name":"Camden, South Carolina","city":"Camden","state":"SC","station_code":"CAM","latitude":"34.248156999877445","longitude":"-80.625189999901778","timezone":-5},"SAB":{"name":"St. Albans, Vermont","city":"St. Albans","state":"VT","station_code":"SAB","latitude":"44.812360000051513","longitude":"-73.086190999641275","timezone":-5},"WNR":{"name":"Walnut Ridge, Arkansas","city":"Walnut Ridge","state":"AR","station_code":"WNR","latitude":"36.067660000359034","longitude":"-90.956765999793944","timezone":-6},"BMT":{"name":"Beaumont, Texas","city":"Beaumont","state":"TX","station_code":"BMT","latitude":"30.07645799994626","longitude":"-94.127367000434958","timezone":-6},"BAR":{"name":"Barstow (Amtrak), California","city":"Barstow","state":"CA","station_code":"BAR","latitude":"34.904820000316349","longitude":"-117.025435000347358","timezone":-8},"CSN":{"name":"Clemson, South Carolina","city":"Clemson","state":"SC","station_code":"CSN","latitude":"34.691114999895326","longitude":"-82.832501000419285","timezone":-5},"DYE":{"name":"Dyer, Indiana","city":"Dyer","state":"IN","station_code":"DYE","latitude":"41.515413000159143","longitude":"-87.518075999757315","timezone":-6},"TYR":{"name":"Tyrone, Pennsylvania","city":"Tyrone","state":"PA","station_code":"TYR","latitude":"40.667704999678108","longitude":"-78.240469999762865","timezone":-5},"MCK":{"name":"McCook, Nebraska","city":"McCook","state":"NE","station_code":"MCK","latitude":"40.19763400007816","longitude":"-100.625791999911414","timezone":-6},"PSN":{"name":"Palm Springs (Train), California","city":"Palm Springs","state":"CA","station_code":"PSN","latitude":"33.897491000337986","longitude":"-116.547913000190903","timezone":-8},"ESM":{"name":"Essex, Montana","city":"Essex","state":"MT","station_code":"ESM","latitude":"48.275543000139109","longitude":"-113.610942000142501","timezone":-7},"CWH":{"name":"Cornwells Heights, Pennsylvania","city":"Cornwells Heights","state":"PA","station_code":"CWH","latitude":"40.0716629997955","longitude":"-74.952187000159725","timezone":-5},"PRC":{"name":"Prince, West Virginia (Beckley)","city":"Prince","state":"WV","station_code":"PRC","latitude":"37.856594000258795","longitude":"-81.060693999736202","timezone":-5},"GRI":{"name":"Green River, Utah","city":"Green River","state":"UT","station_code":"GRI","latitude":"38.992039000116456","longitude":"-110.165228000135798","timezone":-7},"CUT":{"name":"Cut Bank, Montana","city":"Cut Bank","state":"MT","station_code":"CUT","latitude":"48.638363999974274","longitude":"-112.331584000163176","timezone":-7},"GLM":{"name":"Gilman, Illinois","city":"Gilman","state":"IL","station_code":"GLM","latitude":"40.75254699972411","longitude":"-87.998055000013636","timezone":-6},"TCA":{"name":"Toccoa, Georgia","city":"Toccoa","state":"GA","station_code":"TCA","latitude":"34.578456000299248","longitude":"-83.331542000374696","timezone":-5},"CLA":{"name":"Claremont, New Hampshire","city":"Claremont","state":"NH","station_code":"CLA","latitude":"43.368330000143473","longitude":"-72.377644000028454","timezone":-5},"PIC":{"name":"Picayune, Mississippi","city":"Picayune","state":"MS","station_code":"PIC","latitude":"30.524605999867884","longitude":"-89.680259999924715","timezone":-6},"CLF":{"name":"Clifton Forge, Virginia","city":"Clifton Forge","state":"VA","station_code":"CLF","latitude":"37.814521000146108","longitude":"-79.82736299973223","timezone":-5},"POH":{"name":"Port Henry, New York","city":"Port Henry","state":"NY","station_code":"POH","latitude":"44.042296999804364","longitude":"-73.458753000279756","timezone":-5},"AKY":{"name":"Ashland, Kentucky","city":"Ashland","state":"KY","station_code":"AKY","latitude":"38.480874999711858","longitude":"-82.639602999835759","timezone":-5},"MAY":{"name":"Maysville,  Kentucky","city":"Maysville","state":"KY","station_code":"MAY","latitude":"38.652147999833161","longitude":"-83.771074000129005","timezone":-5},"FTC":{"name":"Ticonderoga, New York","city":"Ticonderoga","state":"NY","station_code":"FTC","latitude":"43.853788000256074","longitude":"-73.389680999992962","timezone":-5},"HLD":{"name":"Holdrege, Nebraska","city":"Holdrege","state":"NE","station_code":"HLD","latitude":"40.435926000283779","longitude":"-99.371240999859239","timezone":-6},"HER":{"name":"Helper, Utah","city":"Helper","state":"UT","station_code":"HER","latitude":"39.684036000269046","longitude":"-110.853893999716803","timezone":-7},"BEN":{"name":"Benson, Arizona","city":"Benson","state":"AZ","station_code":"BEN","latitude":"31.968758000312796","longitude":"-110.29690400040802","timezone":-7},"REN":{"name":"Rensselaer, Indiana","city":"Rensselaer","state":"IN","station_code":"REN","latitude":"40.943280999961893","longitude":"-87.155120999585478","timezone":-6},"RPH":{"name":"Randolph, Vermont","city":"Randolph","state":"VT","station_code":"RPH","latitude":"43.922398000195024","longitude":"-72.665458999645182","timezone":-5},"DRT":{"name":"Del Rio, Texas","city":"Del Rio","state":"TX","station_code":"DRT","latitude":"29.36220200037646","longitude":"-100.902661999768284","timezone":-6},"FRA":{"name":"Framingham, Massachusetts","city":"Framingham","state":"MA","station_code":"FRA","latitude":"42.275993000300168","longitude":"-71.420033000010832","timezone":-5},"LMR":{"name":"Lamar, Colorado","city":"Lamar","state":"CO","station_code":"LMR","latitude":"38.089623000254825","longitude":"-102.618573999893442","timezone":-7},"NIB":{"name":"New Iberia, Louisiana","city":"New Iberia","state":"LA","station_code":"NIB","latitude":"30.008415000317783","longitude":"-91.823809000190337","timezone":-6},"WHL":{"name":"Whitehall, New York","city":"Whitehall","state":"NY","station_code":"WHL","latitude":"43.554693999946295","longitude":"-73.403206999701283","timezone":-5},"MVN":{"name":"Malvern, Arkansas","city":"Malvern","state":"AR","station_code":"MVN","latitude":"34.365483999915803","longitude":"-92.81401799966109","timezone":-6},"POS":{"name":"Pomona (Sunset Ltd), California","city":"Pomona","state":"CA","station_code":"POS","latitude":"34.059224000100521","longitude":"-117.750620999894466","timezone":-8},"PUR":{"name":"Purcell, Oklahoma","city":"Purcell","state":"OK","station_code":"PUR","latitude":"35.012033000310474","longitude":"-97.357416000279329","timezone":-6},"HOP":{"name":"Hope, AR","city":"Hope","state":"AR","station_code":"HOP","latitude":"33.668912999634905","longitude":"-93.592246999656069","timezone":-6},"ALI":{"name":"Albion, Michigan","city":"Albion","state":"MI","station_code":"ALI","latitude":"42.247196000219219","longitude":"-84.755813999556167","timezone":-5},"BRO":{"name":"Browning, Montana","city":"Browning","state":"MT","station_code":"BRO","latitude":"48.534067000215131","longitude":"-113.013151000329358","timezone":-7},"HAZ":{"name":"Hazlehurst, Mississippi","city":"Hazlehurst","state":"MS","station_code":"HAZ","latitude":"31.86132000029226","longitude":"-90.394346999726224","timezone":-6},"SCH":{"name":"Schriever, Louisiana","city":"Schriever","state":"LA","station_code":"SCH","latitude":"29.746677999830094","longitude":"-90.815246000126876","timezone":-6},"DEM":{"name":"Deming, New Mexico","city":"Deming","state":"NM","station_code":"DEM","latitude":"32.271769999627715","longitude":"-107.754346000159771","timezone":-7},"GAS":{"name":"Gastonia, North Carolina","city":"Gastonia","state":"NC","station_code":"GAS","latitude":"35.269185999653637","longitude":"-81.16236600002425","timezone":-5},"WIH":{"name":"Wishram, Washington","city":"Wishram","state":"WA","station_code":"WIH","latitude":"45.657669000037295","longitude":"-120.966142000298021","timezone":-8},"RSP":{"name":"Rouses Point, New York","city":"Rouses Point","state":"NY","station_code":"RSP","latitude":"44.99486999976957","longitude":"-73.371092999946839","timezone":-5},"PHN":{"name":"Philadelphia (North), Pennsylvania","city":"North Philadelphia","state":"PA","station_code":"PHN","latitude":"39.996779999925202","longitude":"-75.155114000086002","timezone":-5},"HLK":{"name":"Holyoke, Massachusetts","city":"Holyoke","state":"MA","station_code":"HLK","latitude":"42.204156000246691","longitude":"-72.602309000036797","timezone":-5},"ARK":{"name":"Arkadelphia, Arkansas","city":"Arkadelphia","state":"AR","station_code":"ARK","latitude":"34.113918999937454","longitude":"-93.05328399980354","timezone":-6},"WNM":{"name":"Windsor, Vermont","city":"Windsor-Mt. Ascutney","state":"VT","station_code":"WNM","latitude":"43.479907999899503","longitude":"-72.384958000426749","timezone":-5},"SPM":{"name":"South Shore-South Portsmouth, Kentucky","city":"South Portsmouth","state":"KY","station_code":"SPM","latitude":"38.721281000063016","longitude":"-82.96375099982086","timezone":-5},"MNG":{"name":"Montgomery, West Virginia","city":"Montgomery","state":"WV","station_code":"MNG","latitude":"38.180743000140879","longitude":"-81.32403000038714","timezone":-5},"COI":{"name":"Connersville, Indiana","city":"Connersville","state":"IN","station_code":"COI","latitude":"39.64596899984025","longitude":"-85.133379999907831","timezone":-5},"LDB":{"name":"Lordsburg, New Mexico","city":"Lordsburg","state":"NM","station_code":"LDB","latitude":"32.350069999931371","longitude":"-108.707025000434243","timezone":-7},"PRK":{"name":"Port Kent, New York","city":"Port Kent","state":"NY","station_code":"PRK","latitude":"44.524078999963422","longitude":"-73.403535999589252","timezone":-5},"ALD":{"name":"Alderson, West Virginia","city":"Alderson","state":"WV","station_code":"ALD","latitude":"37.72427700022098","longitude":"-80.644855999848431","timezone":-5},"THN":{"name":"Thurmond, West Virginia","city":"Thurmond","state":"WV","station_code":"THN","latitude":"37.956986000271655","longitude":"-81.078753999702727","timezone":-5},"SND":{"name":"Sanderson, Texas","city":"Sanderson","state":"TX","station_code":"SND","latitude":"30.13995100017528","longitude":"-102.39874600009199","timezone":-6},"ATR":{"name":"Artmore, Alabama","city":"Artmore","state":"AL","station_code":"ATR","latitude":"31.024229000223691","longitude":"-87.492746999598324","timezone":-6},"BAS":{"name":"Bay St. Louis, Mississippi","city":"Bay St. Louis","state":"MS","station_code":"BAS","latitude":"30.314199999702797","longitude":"-89.333337999789833","timezone":-6},"BIX":{"name":"Biloxi, Mississippi","city":"Biloxi","state":"MS","station_code":"BIX","latitude":"30.408387000372887","longitude":"-88.885375000276966","timezone":-6},"CIP":{"name":"Chipley, Florida","city":"Chipley","state":"FL","station_code":"CIP","latitude":"30.794250000209679","longitude":"-85.539884999863645","timezone":-6},"CSV":{"name":"Crestview, Florida","city":"Crestview","state":"FL","station_code":"CSV","latitude":"30.764235000295599","longitude":"-86.558549999963063","timezone":-6},"GRE":{"name":"Greeley, Colorado","city":"Greeley","state":"CO","station_code":"GRE","latitude":"40.423999999862275","longitude":"-104.688499999895612","timezone":-7},"MDO":{"name":"Madison, Florida","city":"Madison","state":"FL","station_code":"MDO","latitude":"30.459877999641311","longitude":"-83.413218000104905","timezone":-5},"MOE":{"name":"Mobile, Alabama","city":"Mobile","state":"AL","station_code":"MOE","latitude":"30.7081079996338","longitude":"-88.047508000209476","timezone":-6},"PNS":{"name":"Pensacola, Florida","city":"Pensacola","state":"FL","station_code":"PNS","latitude":"30.417749000384422","longitude":"-87.20503800028682","timezone":-6},"TLH":{"name":"Tallahassee, Florida","city":"Tallahassee","state":"FL","station_code":"TLH","latitude":"30.432611000232292","longitude":"-84.289348000385985","timezone":-5}}
